[{"un":28,"name":"Antigua and Barbuda","area":44,"lat":17.078,"fips":"AC","pop2005":83039,"subregion":29,"lon":-61.783,"iso2":"AG","iso3":"ATG","region":19},{"un":12,"name":"Algeria","area":238174,"lat":28.163,"fips":"AG","pop2005":32854159,"subregion":15,"lon":2.632,"iso2":"DZ","iso3":"DZA","region":2},{"un":31,"name":"Azerbaijan","area":8260,"lat":40.43,"fips":"AJ","pop2005":8352021,"subregion":145,"lon":47.395,"iso2":"AZ","iso3":"AZE","region":142},{"un":8,"name":"Albania","area":2740,"lat":41.143,"fips":"AL","pop2005":3153731,"subregion":39,"lon":20.068,"iso2":"AL","iso3":"ALB","region":150},{"un":51,"name":"Armenia","area":2820,"lat":40.534,"fips":"AM","pop2005":3017661,"subregion":145,"lon":44.563,"iso2":"AM","iso3":"ARM","region":142},{"un":24,"name":"Angola","area":124670,"lat":-12.296,"fips":"AO","pop2005":16095214,"subregion":17,"lon":17.544,"iso2":"AO","iso3":"AGO","region":2},{"un":16,"name":"American Samoa","area":20,"lat":-14.318,"fips":"AQ","pop2005":64051,"subregion":61,"lon":-170.73,"iso2":"AS","iso3":"ASM","region":9},{"un":32,"name":"Argentina","area":273669,"lat":-35.377,"fips":"AR","pop2005":38747148,"subregion":5,"lon":-65.167,"iso2":"AR","iso3":"ARG","region":19},{"un":36,"name":"Australia","area":768230,"lat":-24.973,"fips":"AS","pop2005":20310208,"subregion":53,"lon":136.189,"iso2":"AU","iso3":"AUS","region":9},{"un":48,"name":"Bahrain","area":71,"lat":26.019,"fips":"BA","pop2005":724788,"subregion":145,"lon":50.562,"iso2":"BH","iso3":"BHR","region":142},{"un":52,"name":"Barbados","area":43,"lat":13.153,"fips":"BB","pop2005":291933,"subregion":29,"lon":-59.559,"iso2":"BB","iso3":"BRB","region":19},{"un":60,"name":"Bermuda","area":5,"lat":32.336,"fips":"BD","pop2005":64174,"subregion":21,"lon":-64.709,"iso2":"BM","iso3":"BMU","region":19},{"un":44,"name":"Bahamas","area":1001,"lat":24.628,"fips":"BF","pop2005":323295,"subregion":29,"lon":-78.014,"iso2":"BS","iso3":"BHS","region":19},{"un":50,"name":"Bangladesh","area":13017,"lat":24.218,"fips":"BG","pop2005":15328112,"subregion":34,"lon":89.941,"iso2":"BD","iso3":"BGD","region":142},{"un":84,"name":"Belize","area":2281,"lat":17.219,"fips":"BH","pop2005":275546,"subregion":13,"lon":-88.602,"iso2":"BZ","iso3":"BLZ","region":19},{"un":70,"name":"Bosnia and Herzegovina","area":5120,"lat":44.169,"fips":"BK","pop2005":3915238,"subregion":39,"lon":17.786,"iso2":"BA","iso3":"BIH","region":150},{"un":68,"name":"Bolivia","area":108438,"lat":-16.715,"fips":"BL","pop2005":9182015,"subregion":5,"lon":-64.671,"iso2":"BO","iso3":"BOL","region":19},{"un":104,"name":"Burma","area":65755,"lat":21.718,"fips":"BM","pop2005":47967266,"subregion":35,"lon":96.041,"iso2":"MM","iso3":"MMR","region":142},{"un":204,"name":"Benin","area":11062,"lat":10.541,"fips":"BN","pop2005":8490301,"subregion":11,"lon":2.469,"iso2":"BJ","iso3":"BEN","region":2},{"un":90,"name":"Solomon Islands","area":2799,"lat":-9.611,"fips":"BP","pop2005":472419,"subregion":54,"lon":160.109,"iso2":"SB","iso3":"SLB","region":9},{"un":76,"name":"Brazil","area":845942,"lat":-10.772,"fips":"BR","pop2005":186830759,"subregion":5,"lon":-53.089,"iso2":"BR","iso3":"BRA","region":19},{"un":100,"name":"Bulgaria","area":11063,"lat":42.761,"fips":"BU","pop2005":7744591,"subregion":151,"lon":25.231,"iso2":"BG","iso3":"BGR","region":150},{"un":96,"name":"Brunei Darussalam","area":527,"lat":4.468,"fips":"BX","pop2005":373831,"subregion":35,"lon":114.591,"iso2":"BN","iso3":"BRN","region":142},{"un":124,"name":"Canada","area":909351,"lat":59.081,"fips":"CA","pop2005":32270507,"subregion":21,"lon":-109.433,"iso2":"CA","iso3":"CAN","region":19},{"un":116,"name":"Cambodia","area":17652,"lat":12.714,"fips":"CB","pop2005":13955507,"subregion":35,"lon":104.564,"iso2":"KH","iso3":"KHM","region":142},{"un":144,"name":"Sri Lanka","area":6463,"lat":7.612,"fips":"CE","pop2005":19120763,"subregion":34,"lon":80.704,"iso2":"LK","iso3":"LKA","region":142},{"un":178,"name":"Congo","area":34150,"lat":-0.055,"fips":"CF","pop2005":3609851,"subregion":17,"lon":15.986,"iso2":"CG","iso3":"COG","region":2},{"un":180,"name":"Democratic Republic of the Congo","area":226705,"lat":-2.876,"fips":"CG","pop2005":58740547,"subregion":17,"lon":23.654,"iso2":"CD","iso3":"COD","region":2},{"un":108,"name":"Burundi","area":2568,"lat":-3.356,"fips":"BY","pop2005":7858791,"subregion":14,"lon":29.887,"iso2":"BI","iso3":"BDI","region":2},{"un":156,"name":"China","area":932743,"lat":33.42,"fips":"CH","pop2005":1312978855,"subregion":30,"lon":106.514,"iso2":"CN","iso3":"CHN","region":142},{"un":4,"name":"Afghanistan","area":65209,"lat":33.677,"fips":"AF","pop2005":25067407,"subregion":34,"lon":65.216,"iso2":"AF","iso3":"AFG","region":142},{"un":64,"name":"Bhutan","area":4700,"lat":27.415,"fips":"BT","pop2005":637013,"subregion":34,"lon":90.429,"iso2":"BT","iso3":"BTN","region":142},{"un":152,"name":"Chile","area":74880,"lat":-23.389,"fips":"CI","pop2005":16295102,"subregion":5,"lon":-69.433,"iso2":"CL","iso3":"CHL","region":19},{"un":136,"name":"Cayman Islands","area":26,"lat":19.314,"fips":"CJ","pop2005":45591,"subregion":29,"lon":-81.198,"iso2":"KY","iso3":"CYM","region":19},{"un":120,"name":"Cameroon","area":46540,"lat":5.133,"fips":"CM","pop2005":17795149,"subregion":17,"lon":12.277,"iso2":"CM","iso3":"CMR","region":2},{"un":148,"name":"Chad","area":125920,"lat":15.361,"fips":"CD","pop2005":10145609,"subregion":17,"lon":18.665,"iso2":"TD","iso3":"TCD","region":2},{"un":174,"name":"Comoros","area":223,"lat":-11.758,"fips":"CN","pop2005":797902,"subregion":14,"lon":43.337,"iso2":"KM","iso3":"COM","region":2},{"un":170,"name":"Colombia","area":103870,"lat":3.9,"fips":"CO","pop2005":4494579,"subregion":5,"lon":-73.076,"iso2":"CO","iso3":"COL","region":19},{"un":188,"name":"Costa Rica","area":5106,"lat":9.971,"fips":"CS","pop2005":4327228,"subregion":13,"lon":-83.946,"iso2":"CR","iso3":"CRI","region":19},{"un":140,"name":"Central African Republic","area":62298,"lat":6.571,"fips":"CT","pop2005":4191429,"subregion":17,"lon":20.483,"iso2":"CF","iso3":"CAF","region":2},{"un":192,"name":"Cuba","area":10982,"lat":21.297,"fips":"CU","pop2005":11259905,"subregion":29,"lon":-77.781,"iso2":"CU","iso3":"CUB","region":19},{"un":132,"name":"Cape Verde","area":403,"lat":15.071,"fips":"CV","pop2005":506807,"subregion":11,"lon":-23.634,"iso2":"CV","iso3":"CPV","region":2},{"un":184,"name":"Cook Islands","area":24,"lat":-21.219,"fips":"CW","pop2005":13984,"subregion":61,"lon":-159.782,"iso2":"CK","iso3":"COK","region":9},{"un":196,"name":"Cyprus","area":924,"lat":35.043,"fips":"CY","pop2005":836321,"subregion":145,"lon":33.219,"iso2":"CY","iso3":"CYP","region":142},{"un":208,"name":"Denmark","area":4243,"lat":56.058,"fips":"DA","pop2005":5416945,"subregion":154,"lon":9.264,"iso2":"DK","iso3":"DNK","region":150},{"un":262,"name":"Djibouti","area":2318,"lat":11.9,"fips":"DJ","pop2005":804206,"subregion":14,"lon":42.516,"iso2":"DJ","iso3":"DJI","region":2},{"un":212,"name":"Dominica","area":75,"lat":15.475,"fips":"DO","pop2005":67827,"subregion":29,"lon":-61.356,"iso2":"DM","iso3":"DMA","region":19},{"un":214,"name":"Dominican Republic","area":4838,"lat":19.015,"fips":"DR","pop2005":9469601,"subregion":29,"lon":-70.729,"iso2":"DO","iso3":"DOM","region":19},{"un":218,"name":"Ecuador","area":27684,"lat":-1.385,"fips":"EC","pop2005":13060993,"subregion":5,"lon":-78.497,"iso2":"EC","iso3":"ECU","region":19},{"un":818,"name":"Egypt","area":99545,"lat":26.494,"fips":"EG","pop2005":72849793,"subregion":15,"lon":29.872,"iso2":"EG","iso3":"EGY","region":2},{"un":372,"name":"Ireland","area":6889,"lat":53.177,"fips":"EI","pop2005":4143294,"subregion":154,"lon":-8.152,"iso2":"IE","iso3":"IRL","region":150},{"un":226,"name":"Equatorial Guinea","area":2805,"lat":1.607,"fips":"EK","pop2005":484098,"subregion":17,"lon":10.488,"iso2":"GQ","iso3":"GNQ","region":2},{"un":233,"name":"Estonia","area":4239,"lat":58.674,"fips":"EN","pop2005":1344312,"subregion":154,"lon":25.793,"iso2":"EE","iso3":"EST","region":150},{"un":232,"name":"Eritrea","area":10100,"lat":16.045,"fips":"ER","pop2005":4526722,"subregion":14,"lon":38.219,"iso2":"ER","iso3":"ERI","region":2},{"un":222,"name":"El Salvador","area":2072,"lat":13.736,"fips":"ES","pop2005":6668356,"subregion":13,"lon":-88.866,"iso2":"SV","iso3":"SLV","region":19},{"un":231,"name":"Ethiopia","area":100000,"lat":8.626,"fips":"ET","pop2005":78985857,"subregion":14,"lon":39.616,"iso2":"ET","iso3":"ETH","region":2},{"un":40,"name":"Austria","area":8245,"lat":47.683,"fips":"AU","pop2005":8291979,"subregion":155,"lon":14.912,"iso2":"AT","iso3":"AUT","region":150},{"un":203,"name":"Czech Republic","area":7727,"lat":49.743,"fips":"EZ","pop2005":10191762,"subregion":151,"lon":15.338,"iso2":"CZ","iso3":"CZE","region":150},{"un":254,"name":"French Guiana","area":8815,"lat":3.924,"fips":"FG","pop2005":192099,"subregion":5,"lon":-53.241,"iso2":"GF","iso3":"GUF","region":19},{"un":246,"name":"Finland","area":30459,"lat":64.504,"fips":"FI","pop2005":5246004,"subregion":154,"lon":26.272,"iso2":"FI","iso3":"FIN","region":150},{"un":242,"name":"Fiji","area":1827,"lat":-17.819,"fips":"FJ","pop2005":828046,"subregion":54,"lon":177.974,"iso2":"FJ","iso3":"FJI","region":9},{"un":238,"name":"Falkland Islands (Malvinas)","area":1217,"lat":-51.665,"fips":"FK","pop2005":2975,"subregion":5,"lon":-58.694,"iso2":"FK","iso3":"FLK","region":19},{"un":583,"name":"Micronesia, Federated States of","area":70,"lat":6.883,"fips":"FM","pop2005":110058,"subregion":57,"lon":158.235,"iso2":"FM","iso3":"FSM","region":9},{"un":258,"name":"French Polynesia","area":366,"lat":-17.626,"fips":"FP","pop2005":255632,"subregion":61,"lon":-149.462,"iso2":"PF","iso3":"PYF","region":9},{"un":250,"name":"France","area":55010,"lat":46.565,"fips":"FR","pop2005":60990544,"subregion":155,"lon":2.55,"iso2":"FR","iso3":"FRA","region":150},{"un":270,"name":"Gambia","area":1000,"lat":13.453,"fips":"GA","pop2005":1617029,"subregion":11,"lon":-15.386,"iso2":"GM","iso3":"GMB","region":2},{"un":266,"name":"Gabon","area":25767,"lat":-0.591,"fips":"GB","pop2005":1290693,"subregion":17,"lon":11.797,"iso2":"GA","iso3":"GAB","region":2},{"un":268,"name":"Georgia","area":6949,"lat":42.176,"fips":"GG","pop2005":4473409,"subregion":145,"lon":43.518,"iso2":"GE","iso3":"GEO","region":142},{"un":288,"name":"Ghana","area":22754,"lat":7.96,"fips":"GH","pop2005":2253501,"subregion":11,"lon":-1.207,"iso2":"GH","iso3":"GHA","region":2},{"un":308,"name":"Grenada","area":34,"lat":12.118,"fips":"GJ","pop2005":105237,"subregion":29,"lon":-61.678,"iso2":"GD","iso3":"GRD","region":19},{"un":304,"name":"Greenland","area":41045,"lat":74.719,"fips":"GL","pop2005":57475,"subregion":21,"lon":-41.391,"iso2":"GL","iso3":"GRL","region":19},{"un":276,"name":"Germany","area":34895,"lat":51.11,"fips":"GM","pop2005":82652369,"subregion":155,"lon":9.851,"iso2":"DE","iso3":"DEU","region":150},{"un":316,"name":"Guam","area":55,"lat":13.385,"fips":"GQ","pop2005":16857,"subregion":57,"lon":144.707,"iso2":"GU","iso3":"GUM","region":9},{"un":300,"name":"Greece","area":12890,"lat":39.666,"fips":"GR","pop2005":11099737,"subregion":39,"lon":21.766,"iso2":"GR","iso3":"GRC","region":150},{"un":320,"name":"Guatemala","area":10843,"lat":15.256,"fips":"GT","pop2005":12709564,"subregion":13,"lon":-90.398,"iso2":"GT","iso3":"GTM","region":19},{"un":324,"name":"Guinea","area":24572,"lat":10.439,"fips":"GV","pop2005":9002656,"subregion":11,"lon":-10.942,"iso2":"GN","iso3":"GIN","region":2},{"un":328,"name":"Guyana","area":19685,"lat":4.792,"fips":"GY","pop2005":739472,"subregion":5,"lon":-58.974,"iso2":"GY","iso3":"GUY","region":19},{"un":332,"name":"Haiti","area":2756,"lat":19.142,"fips":"HA","pop2005":9296291,"subregion":29,"lon":-72.278,"iso2":"HT","iso3":"HTI","region":19},{"un":340,"name":"Honduras","area":11189,"lat":14.819,"fips":"HO","pop2005":683411,"subregion":13,"lon":-86.863,"iso2":"HN","iso3":"HND","region":19},{"un":191,"name":"Croatia","area":5592,"lat":45.723,"fips":"HR","pop2005":455149,"subregion":39,"lon":16.693,"iso2":"HR","iso3":"HRV","region":150},{"un":348,"name":"Hungary","area":9210,"lat":47.07,"fips":"HU","pop2005":10086387,"subregion":151,"lon":19.134,"iso2":"HU","iso3":"HUN","region":150},{"un":352,"name":"Iceland","area":10025,"lat":64.764,"fips":"IC","pop2005":295732,"subregion":154,"lon":-18.48,"iso2":"IS","iso3":"ISL","region":150},{"un":356,"name":"India","area":297319,"lat":21.0,"fips":"IN","pop2005":1134403141,"subregion":34,"lon":78.5,"iso2":"IN","iso3":"IND","region":142},{"un":364,"name":"Iran (Islamic Republic of)","area":163620,"lat":32.565,"fips":"IR","pop2005":69420607,"subregion":34,"lon":54.301,"iso2":"IR","iso3":"IRN","region":142},{"un":376,"name":"Israel","area":2171,"lat":31.026,"fips":"IS","pop2005":6692037,"subregion":145,"lon":34.851,"iso2":"IL","iso3":"ISR","region":142},{"un":380,"name":"Italy","area":29411,"lat":42.7,"fips":"IT","pop2005":5864636,"subregion":39,"lon":12.8,"iso2":"IT","iso3":"ITA","region":150},{"un":384,"name":"Cote d'Ivoire","area":31800,"lat":7.632,"fips":"IV","pop2005":18584701,"subregion":11,"lon":-5.556,"iso2":"CI","iso3":"CIV","region":2},{"un":368,"name":"Iraq","area":43737,"lat":33.048,"fips":"IZ","pop2005":27995984,"subregion":145,"lon":43.772,"iso2":"IQ","iso3":"IRQ","region":142},{"un":392,"name":"Japan","area":36450,"lat":36.491,"fips":"JA","pop2005":127896740,"subregion":30,"lon":139.068,"iso2":"JP","iso3":"JPN","region":142},{"un":388,"name":"Jamaica","area":1083,"lat":18.151,"fips":"JM","pop2005":2682469,"subregion":29,"lon":-77.32,"iso2":"JM","iso3":"JAM","region":19},{"un":400,"name":"Jordan","area":8824,"lat":30.703,"fips":"JO","pop2005":5544066,"subregion":145,"lon":36.319,"iso2":"JO","iso3":"JOR","region":142},{"un":404,"name":"Kenya","area":56914,"lat":0.53,"fips":"KE","pop2005":35598952,"subregion":14,"lon":37.858,"iso2":"KE","iso3":"KEN","region":2},{"un":417,"name":"Kyrgyzstan","area":19180,"lat":41.465,"fips":"KG","pop2005":5203547,"subregion":143,"lon":74.555,"iso2":"KG","iso3":"KGZ","region":142},{"un":408,"name":"Korea, Democratic People's Republic of","area":12041,"lat":39.778,"fips":"KN","pop2005":23615611,"subregion":30,"lon":126.451,"iso2":"KP","iso3":"PRK","region":142},{"un":296,"name":"Kiribati","area":73,"lat":-1.508,"fips":"KR","pop2005":92003,"subregion":57,"lon":175.036,"iso2":"KI","iso3":"KIR","region":9},{"un":410,"name":"Korea, Republic of","area":9873,"lat":36.504,"fips":"KS","pop2005":47869837,"subregion":30,"lon":128.103,"iso2":"KR","iso3":"KOR","region":142},{"un":414,"name":"Kuwait","area":1782,"lat":29.476,"fips":"KU","pop2005":2700,"subregion":145,"lon":47.376,"iso2":"KW","iso3":"KWT","region":142},{"un":398,"name":"Kazakhstan","area":269970,"lat":48.16,"fips":"KZ","pop2005":15210609,"subregion":143,"lon":67.301,"iso2":"KZ","iso3":"KAZ","region":142},{"un":418,"name":"Lao People's Democratic Republic","area":23080,"lat":19.905,"fips":"LA","pop2005":566391,"subregion":35,"lon":102.471,"iso2":"LA","iso3":"LAO","region":142},{"un":422,"name":"Lebanon","area":1023,"lat":33.92,"fips":"LE","pop2005":401074,"subregion":145,"lon":35.888,"iso2":"LB","iso3":"LBN","region":142},{"un":428,"name":"Latvia","area":6205,"lat":56.858,"fips":"LG","pop2005":2301793,"subregion":154,"lon":25.641,"iso2":"LV","iso3":"LVA","region":150},{"un":112,"name":"Belarus","area":20748,"lat":53.54,"fips":"BO","pop2005":9795287,"subregion":151,"lon":28.047,"iso2":"BY","iso3":"BLR","region":150},{"un":440,"name":"Lithuania","area":6268,"lat":55.336,"fips":"LH","pop2005":3425077,"subregion":154,"lon":23.897,"iso2":"LT","iso3":"LTU","region":150},{"un":430,"name":"Liberia","area":9632,"lat":6.682,"fips":"LI","pop2005":3441796,"subregion":11,"lon":-9.657,"iso2":"LR","iso3":"LBR","region":2},{"un":703,"name":"Slovakia","area":4808,"lat":48.707,"fips":"LO","pop2005":5386995,"subregion":151,"lon":19.491,"iso2":"SK","iso3":"SVK","region":150},{"un":438,"name":"Liechtenstein","area":16,"lat":47.153,"fips":"LS","pop2005":34598,"subregion":155,"lon":9.555,"iso2":"LI","iso3":"LIE","region":150},{"un":434,"name":"Libyan Arab Jamahiriya","area":175954,"lat":27.044,"fips":"LY","pop2005":5918217,"subregion":15,"lon":18.023,"iso2":"LY","iso3":"LBY","region":2},{"un":450,"name":"Madagascar","area":58154,"lat":-19.374,"fips":"MA","pop2005":18642586,"subregion":14,"lon":46.706,"iso2":"MG","iso3":"MDG","region":2},{"un":474,"name":"Martinique","area":106,"lat":14.653,"fips":"MB","pop2005":395896,"subregion":29,"lon":-61.021,"iso2":"MQ","iso3":"MTQ","region":19},{"un":496,"name":"Mongolia","area":156650,"lat":46.056,"fips":"MG","pop2005":2580704,"subregion":30,"lon":102.876,"iso2":"MN","iso3":"MNG","region":142},{"un":500,"name":"Montserrat","area":10,"lat":16.736,"fips":"MH","pop2005":5628,"subregion":29,"lon":-62.187,"iso2":"MS","iso3":"MSR","region":19},{"un":807,"name":"The former Yugoslav Republic of Macedonia","area":2543,"lat":41.6,"fips":"MK","pop2005":2033655,"subregion":39,"lon":21.698,"iso2":"MK","iso3":"MKD","region":150},{"un":466,"name":"Mali","area":122019,"lat":17.35,"fips":"ML","pop2005":1161109,"subregion":11,"lon":-3.524,"iso2":"ML","iso3":"MLI","region":2},{"un":504,"name":"Morocco","area":44630,"lat":32.706,"fips":"MO","pop2005":30494991,"subregion":15,"lon":-5.758,"iso2":"MA","iso3":"MAR","region":2},{"un":480,"name":"Mauritius","area":203,"lat":-20.255,"fips":"MP","pop2005":1241173,"subregion":14,"lon":57.583,"iso2":"MU","iso3":"MUS","region":2},{"un":478,"name":"Mauritania","area":102522,"lat":20.26,"fips":"MR","pop2005":2963105,"subregion":11,"lon":-10.332,"iso2":"MR","iso3":"MRT","region":2},{"un":470,"name":"Malta","area":32,"lat":35.89,"fips":"MT","pop2005":402617,"subregion":39,"lon":14.442,"iso2":"MT","iso3":"MLT","region":150},{"un":512,"name":"Oman","area":30950,"lat":21.656,"fips":"MU","pop2005":2507042,"subregion":145,"lon":57.407,"iso2":"OM","iso3":"OMN","region":142},{"un":462,"name":"Maldives","area":30,"lat":3.548,"fips":"MV","pop2005":295297,"subregion":34,"lon":72.92,"iso2":"MV","iso3":"MDV","region":142},{"un":484,"name":"Mexico","area":190869,"lat":23.951,"fips":"MX","pop2005":104266392,"subregion":13,"lon":-102.535,"iso2":"MX","iso3":"MEX","region":19},{"un":458,"name":"Malaysia","area":32855,"lat":4.201,"fips":"MY","pop2005":25652985,"subregion":35,"lon":102.195,"iso2":"MY","iso3":"MYS","region":142},{"un":508,"name":"Mozambique","area":78409,"lat":-14.422,"fips":"MZ","pop2005":20532675,"subregion":14,"lon":37.923,"iso2":"MZ","iso3":"MOZ","region":2},{"un":454,"name":"Malawi","area":9408,"lat":-13.4,"fips":"MI","pop2005":13226091,"subregion":14,"lon":33.808,"iso2":"MW","iso3":"MWI","region":2},{"un":540,"name":"New Caledonia","area":1828,"lat":-21.359,"fips":"NC","pop2005":234185,"subregion":54,"lon":165.447,"iso2":"NC","iso3":"NCL","region":9},{"un":570,"name":"Niue","area":26,"lat":-19.052,"fips":"NE","pop2005":1632,"subregion":61,"lon":-169.869,"iso2":"NU","iso3":"NIU","region":9},{"un":562,"name":"Niger","area":126670,"lat":17.426,"fips":"NG","pop2005":1326419,"subregion":11,"lon":9.398,"iso2":"NE","iso3":"NER","region":2},{"un":533,"name":"Aruba","area":0,"lat":12.517,"fips":"AA","pop2005":102897,"subregion":29,"lon":-69.977,"iso2":"AW","iso3":"ABW","region":19},{"un":660,"name":"Anguilla","area":0,"lat":18.237,"fips":"AV","pop2005":12256,"subregion":29,"lon":-63.032,"iso2":"AI","iso3":"AIA","region":19},{"un":56,"name":"Belgium","area":0,"lat":50.643,"fips":"BE","pop2005":10398049,"subregion":155,"lon":4.664,"iso2":"BE","iso3":"BEL","region":150},{"un":344,"name":"Hong Kong","area":0,"lat":22.423,"fips":"HK","pop2005":7057418,"subregion":30,"lon":114.129,"iso2":"HK","iso3":"HKG","region":142},{"un":580,"name":"Northern Mariana Islands","area":0,"lat":15.005,"fips":"CQ","pop2005":80258,"subregion":57,"lon":145.623,"iso2":"MP","iso3":"MNP","region":9},{"un":234,"name":"Faroe Islands","area":0,"lat":62.05,"fips":"FO","pop2005":48205,"subregion":154,"lon":-6.864,"iso2":"FO","iso3":"FRO","region":150},{"un":20,"name":"Andorra","area":0,"lat":42.549,"fips":"AN","pop2005":73483,"subregion":39,"lon":1.576,"iso2":"AD","iso3":"AND","region":150},{"un":292,"name":"Gibraltar","area":0,"lat":36.138,"fips":"GI","pop2005":291,"subregion":39,"lon":-5.345,"iso2":"GI","iso3":"GIB","region":150},{"un":833,"name":"Isle of Man","area":0,"lat":54.229,"fips":"IM","pop2005":78357,"subregion":154,"lon":-4.527,"iso2":"IM","iso3":"IMN","region":150},{"un":442,"name":"Luxembourg","area":0,"lat":49.771,"fips":"LU","pop2005":456613,"subregion":155,"lon":6.088,"iso2":"LU","iso3":"LUX","region":150},{"un":446,"name":"Macau","area":0,"lat":22.2,"fips":"MC","pop2005":47309,"subregion":30,"lon":113.545,"iso2":"MO","iso3":"MAC","region":142},{"un":492,"name":"Monaco","area":0,"lat":43.75,"fips":"MN","pop2005":325,"subregion":155,"lon":7.412,"iso2":"MC","iso3":"MCO","region":150},{"un":275,"name":"Palestine","area":0,"lat":32.037,"fips":"","pop2005":3762005,"subregion":145,"lon":35.278,"iso2":"PS","iso3":"PSE","region":142},{"un":499,"name":"Montenegro","area":0,"lat":42.792,"fips":"MJ","pop2005":607969,"subregion":39,"lon":19.254,"iso2":"ME","iso3":"MNE","region":150},{"un":175,"name":"Mayotte","area":0,"lat":-12.777,"fips":"MF","pop2005":0,"subregion":14,"lon":45.155,"iso2":"YT","iso3":"MYT","region":2},{"un":248,"name":"Ã…land Islands","area":0,"lat":60.198,"fips":"","pop2005":0,"subregion":154,"lon":19.952,"iso2":"AX","iso3":"ALA","region":150},{"un":574,"name":"Norfolk Island","area":0,"lat":-29.037,"fips":"NF","pop2005":0,"subregion":53,"lon":167.953,"iso2":"NF","iso3":"NFK","region":9},{"un":166,"name":"Cocos (Keeling) Islands","area":1,"lat":-12.173,"fips":"CK","pop2005":0,"subregion":0,"lon":96.839,"iso2":"CC","iso3":"CCK","region":0},{"un":10,"name":"Antarctica","area":0,"lat":-80.446,"fips":"AY","pop2005":0,"subregion":0,"lon":21.304,"iso2":"AQ","iso3":"ATA","region":0},{"un":74,"name":"Bouvet Island","area":0,"lat":-54.422,"fips":"BV","pop2005":0,"subregion":0,"lon":3.412,"iso2":"BV","iso3":"BVT","region":0},{"un":260,"name":"French Southern and Antarctic Lands","area":0,"lat":-49.302,"fips":"FS","pop2005":0,"subregion":0,"lon":69.117,"iso2":"TF","iso3":"ATF","region":0},{"un":334,"name":"Heard Island and McDonald Islands","area":0,"lat":-53.111,"fips":"HM","pop2005":0,"subregion":0,"lon":73.507,"iso2":"HM","iso3":"HMD","region":0},{"un":86,"name":"British Indian Ocean Territory","area":0,"lat":-7.335,"fips":"IO","pop2005":0,"subregion":0,"lon":72.416,"iso2":"IO","iso3":"IOT","region":0},{"un":162,"name":"Christmas Island","area":0,"lat":-10.444,"fips":"KT","pop2005":0,"subregion":0,"lon":105.704,"iso2":"CX","iso3":"CXR","region":0},{"un":581,"name":"United States Minor Outlying Islands","area":0,"lat":-0.385,"fips":"","pop2005":0,"subregion":0,"lon":-160.027,"iso2":"UM","iso3":"UMI","region":0},{"un":548,"name":"Vanuatu","area":1219,"lat":-15.376,"fips":"NH","pop2005":215366,"subregion":54,"lon":166.899,"iso2":"VU","iso3":"VUT","region":9},{"un":566,"name":"Nigeria","area":91077,"lat":9.594,"fips":"NI","pop2005":141356083,"subregion":11,"lon":8.105,"iso2":"NG","iso3":"NGA","region":2},{"un":528,"name":"Netherlands","area":3388,"lat":52.077,"fips":"NL","pop2005":1632769,"subregion":155,"lon":5.389,"iso2":"NL","iso3":"NLD","region":150},{"un":578,"name":"Norway","area":30625,"lat":61.152,"fips":"NO","pop2005":4638836,"subregion":154,"lon":8.74,"iso2":"NO","iso3":"NOR","region":150},{"un":524,"name":"Nepal","area":14300,"lat":28.253,"fips":"NP","pop2005":27093656,"subregion":34,"lon":83.939,"iso2":"NP","iso3":"NPL","region":142},{"un":520,"name":"Nauru","area":2,"lat":-0.522,"fips":"NR","pop2005":10111,"subregion":57,"lon":166.93,"iso2":"NR","iso3":"NRU","region":9},{"un":740,"name":"Suriname","area":15600,"lat":4.127,"fips":"NS","pop2005":452468,"subregion":5,"lon":-55.912,"iso2":"SR","iso3":"SUR","region":19},{"un":558,"name":"Nicaragua","area":12140,"lat":12.84,"fips":"NU","pop2005":5462539,"subregion":13,"lon":-85.034,"iso2":"NI","iso3":"NIC","region":19},{"un":554,"name":"New Zealand","area":26799,"lat":-42.634,"fips":"NZ","pop2005":4097112,"subregion":53,"lon":172.235,"iso2":"NZ","iso3":"NZL","region":9},{"un":600,"name":"Paraguay","area":39730,"lat":-23.236,"fips":"PA","pop2005":5904342,"subregion":5,"lon":-58.391,"iso2":"PY","iso3":"PRY","region":19},{"un":604,"name":"Peru","area":128000,"lat":-9.326,"fips":"PE","pop2005":27274266,"subregion":5,"lon":-75.552,"iso2":"PE","iso3":"PER","region":19},{"un":586,"name":"Pakistan","area":77088,"lat":29.967,"fips":"PK","pop2005":158080591,"subregion":34,"lon":69.386,"iso2":"PK","iso3":"PAK","region":142},{"un":616,"name":"Poland","area":30629,"lat":52.125,"fips":"PL","pop2005":38195558,"subregion":151,"lon":19.401,"iso2":"PL","iso3":"POL","region":150},{"un":591,"name":"Panama","area":7443,"lat":8.384,"fips":"PM","pop2005":3231502,"subregion":13,"lon":-80.92,"iso2":"PA","iso3":"PAN","region":19},{"un":620,"name":"Portugal","area":9150,"lat":40.309,"fips":"PO","pop2005":10528226,"subregion":39,"lon":-8.058,"iso2":"PT","iso3":"PRT","region":150},{"un":598,"name":"Papua New Guinea","area":45286,"lat":-5.949,"fips":"PP","pop2005":6069715,"subregion":54,"lon":143.459,"iso2":"PG","iso3":"PNG","region":9},{"un":624,"name":"Guinea-Bissau","area":2812,"lat":12.125,"fips":"PU","pop2005":1596929,"subregion":11,"lon":-14.651,"iso2":"GW","iso3":"GNB","region":2},{"un":634,"name":"Qatar","area":1100,"lat":25.316,"fips":"QA","pop2005":796186,"subregion":145,"lon":51.191,"iso2":"QA","iso3":"QAT","region":142},{"un":638,"name":"Reunion","area":250,"lat":-21.122,"fips":"RE","pop2005":785159,"subregion":14,"lon":55.538,"iso2":"RE","iso3":"REU","region":2},{"un":642,"name":"Romania","area":22987,"lat":45.844,"fips":"RO","pop2005":21627557,"subregion":151,"lon":24.969,"iso2":"RO","iso3":"ROU","region":150},{"un":498,"name":"Republic of Moldova","area":3288,"lat":47.193,"fips":"MD","pop2005":3876661,"subregion":151,"lon":28.599,"iso2":"MD","iso3":"MDA","region":150},{"un":608,"name":"Philippines","area":29817,"lat":11.118,"fips":"RP","pop2005":84566163,"subregion":35,"lon":122.466,"iso2":"PH","iso3":"PHL","region":142},{"un":630,"name":"Puerto Rico","area":887,"lat":18.221,"fips":"RQ","pop2005":3946779,"subregion":29,"lon":-66.466,"iso2":"PR","iso3":"PRI","region":19},{"un":643,"name":"Russia","area":1638094,"lat":61.988,"fips":"RS","pop2005":143953092,"subregion":151,"lon":96.689,"iso2":"RU","iso3":"RUS","region":150},{"un":646,"name":"Rwanda","area":2467,"lat":-1.998,"fips":"RW","pop2005":9233793,"subregion":14,"lon":29.917,"iso2":"RW","iso3":"RWA","region":2},{"un":682,"name":"Saudi Arabia","area":214969,"lat":24.023,"fips":"SA","pop2005":2361236,"subregion":145,"lon":44.585,"iso2":"SA","iso3":"SAU","region":142},{"un":659,"name":"Saint Kitts and Nevis","area":36,"lat":17.34,"fips":"SC","pop2005":49138,"subregion":29,"lon":-62.769,"iso2":"KN","iso3":"KNA","region":19},{"un":690,"name":"Seychelles","area":46,"lat":-4.647,"fips":"SE","pop2005":85532,"subregion":14,"lon":55.474,"iso2":"SC","iso3":"SYC","region":2},{"un":710,"name":"South Africa","area":121447,"lat":-30.558,"fips":"SF","pop2005":47938663,"subregion":18,"lon":23.121,"iso2":"ZA","iso3":"ZAF","region":2},{"un":426,"name":"Lesotho","area":3035,"lat":-29.581,"fips":"LT","pop2005":1980831,"subregion":18,"lon":28.243,"iso2":"LS","iso3":"LSO","region":2},{"un":72,"name":"Botswana","area":56673,"lat":-22.182,"fips":"BC","pop2005":1835938,"subregion":18,"lon":23.815,"iso2":"BW","iso3":"BWA","region":2},{"un":686,"name":"Senegal","area":19253,"lat":15.013,"fips":"SG","pop2005":1177034,"subregion":11,"lon":-14.881,"iso2":"SN","iso3":"SEN","region":2},{"un":705,"name":"Slovenia","area":2014,"lat":46.124,"fips":"SI","pop2005":1999425,"subregion":39,"lon":14.827,"iso2":"SI","iso3":"SVN","region":150},{"un":694,"name":"Sierra Leone","area":7162,"lat":8.56,"fips":"SL","pop2005":5586403,"subregion":11,"lon":-11.792,"iso2":"SL","iso3":"SLE","region":2},{"un":702,"name":"Singapore","area":67,"lat":1.351,"fips":"SN","pop2005":4327468,"subregion":35,"lon":103.808,"iso2":"SG","iso3":"SGP","region":142},{"un":706,"name":"Somalia","area":62734,"lat":9.774,"fips":"SO","pop2005":8196395,"subregion":14,"lon":48.316,"iso2":"SO","iso3":"SOM","region":2},{"un":724,"name":"Spain","area":49904,"lat":40.227,"fips":"SP","pop2005":43397491,"subregion":39,"lon":-3.649,"iso2":"ES","iso3":"ESP","region":150},{"un":662,"name":"Saint Lucia","area":61,"lat":13.898,"fips":"ST","pop2005":16124,"subregion":29,"lon":-60.969,"iso2":"LC","iso3":"LCA","region":19},{"un":736,"name":"Sudan","area":237600,"lat":13.832,"fips":"SU","pop2005":36899747,"subregion":15,"lon":30.05,"iso2":"SD","iso3":"SDN","region":2},{"un":752,"name":"Sweden","area":41033,"lat":62.011,"fips":"SW","pop2005":9038049,"subregion":154,"lon":15.27,"iso2":"SE","iso3":"SWE","region":150},{"un":760,"name":"Syrian Arab Republic","area":18378,"lat":35.013,"fips":"SY","pop2005":18893881,"subregion":145,"lon":38.506,"iso2":"SY","iso3":"SYR","region":142},{"un":756,"name":"Switzerland","area":4000,"lat":46.861,"fips":"SZ","pop2005":7424389,"subregion":155,"lon":7.908,"iso2":"CH","iso3":"CHE","region":150},{"un":780,"name":"Trinidad and Tobago","area":513,"lat":10.468,"fips":"TD","pop2005":1323722,"subregion":29,"lon":-61.253,"iso2":"TT","iso3":"TTO","region":19},{"un":764,"name":"Thailand","area":51089,"lat":15.7,"fips":"TH","pop2005":63002911,"subregion":35,"lon":100.844,"iso2":"TH","iso3":"THA","region":142},{"un":762,"name":"Tajikistan","area":13996,"lat":38.665,"fips":"TI","pop2005":6550213,"subregion":143,"lon":69.42,"iso2":"TJ","iso3":"TJK","region":142},{"un":772,"name":"Tokelau","area":1,"lat":-9.193,"fips":"TL","pop2005":1401,"subregion":61,"lon":-171.853,"iso2":"TK","iso3":"TKL","region":9},{"un":776,"name":"Tonga","area":72,"lat":-21.202,"fips":"TN","pop2005":99361,"subregion":61,"lon":-175.185,"iso2":"TO","iso3":"TON","region":9},{"un":768,"name":"Togo","area":5439,"lat":8.799,"fips":"TO","pop2005":6238572,"subregion":11,"lon":1.081,"iso2":"TG","iso3":"TGO","region":2},{"un":678,"name":"Sao Tome and Principe","area":96,"lat":0.201,"fips":"TP","pop2005":152622,"subregion":17,"lon":6.629,"iso2":"ST","iso3":"STP","region":2},{"un":788,"name":"Tunisia","area":15536,"lat":35.383,"fips":"TS","pop2005":10104685,"subregion":15,"lon":9.596,"iso2":"TN","iso3":"TUN","region":2},{"un":792,"name":"Turkey","area":76963,"lat":39.061,"fips":"TU","pop2005":72969723,"subregion":145,"lon":35.179,"iso2":"TR","iso3":"TUR","region":142},{"un":798,"name":"Tuvalu","area":3,"lat":-8.514,"fips":"TV","pop2005":10441,"subregion":61,"lon":179.219,"iso2":"TV","iso3":"TUV","region":9},{"un":795,"name":"Turkmenistan","area":46993,"lat":39.122,"fips":"TX","pop2005":4833266,"subregion":143,"lon":59.384,"iso2":"TM","iso3":"TKM","region":142},{"un":834,"name":"United Republic of Tanzania","area":88359,"lat":-6.27,"fips":"TZ","pop2005":38477873,"subregion":14,"lon":34.823,"iso2":"TZ","iso3":"TZA","region":2},{"un":800,"name":"Uganda","area":19710,"lat":1.28,"fips":"UG","pop2005":28947181,"subregion":14,"lon":32.386,"iso2":"UG","iso3":"UGA","region":2},{"un":826,"name":"United Kingdom","area":24193,"lat":53.0,"fips":"UK","pop2005":60244834,"subregion":154,"lon":-1.6,"iso2":"GB","iso3":"GBR","region":150},{"un":804,"name":"Ukraine","area":57935,"lat":49.016,"fips":"UP","pop2005":46917544,"subregion":151,"lon":31.388,"iso2":"UA","iso3":"UKR","region":150},{"un":840,"name":"United States","area":915896,"lat":39.622,"fips":"US","pop2005":299846449,"subregion":21,"lon":-98.606,"iso2":"US","iso3":"USA","region":19},{"un":854,"name":"Burkina Faso","area":27360,"lat":12.278,"fips":"UV","pop2005":13933363,"subregion":11,"lon":-1.74,"iso2":"BF","iso3":"BFA","region":2},{"un":858,"name":"Uruguay","area":17502,"lat":-32.8,"fips":"UY","pop2005":3325727,"subregion":5,"lon":-56.012,"iso2":"UY","iso3":"URY","region":19},{"un":860,"name":"Uzbekistan","area":42540,"lat":41.75,"fips":"UZ","pop2005":26593123,"subregion":143,"lon":63.17,"iso2":"UZ","iso3":"UZB","region":142},{"un":670,"name":"Saint Vincent and the Grenadines","area":39,"lat":13.248,"fips":"VC","pop2005":119137,"subregion":29,"lon":-61.194,"iso2":"VC","iso3":"VCT","region":19},{"un":862,"name":"Venezuela","area":88205,"lat":7.125,"fips":"VE","pop2005":26725573,"subregion":5,"lon":-66.166,"iso2":"VE","iso3":"VEN","region":19},{"un":92,"name":"British Virgin Islands","area":15,"lat":18.483,"fips":"VI","pop2005":22016,"subregion":29,"lon":-64.39,"iso2":"VG","iso3":"VGB","region":19},{"un":704,"name":"Viet Nam","area":32549,"lat":21.491,"fips":"VM","pop2005":85028643,"subregion":35,"lon":105.314,"iso2":"VN","iso3":"VNM","region":142},{"un":850,"name":"United States Virgin Islands","area":35,"lat":17.741,"fips":"VQ","pop2005":111408,"subregion":29,"lon":-64.785,"iso2":"VI","iso3":"VIR","region":19},{"un":516,"name":"Namibia","area":82329,"lat":-22.133,"fips":"WA","pop2005":2019677,"subregion":18,"lon":17.218,"iso2":"NA","iso3":"NAM","region":2},{"un":876,"name":"Wallis and Futuna Islands","area":14,"lat":-14.289,"fips":"WF","pop2005":15079,"subregion":61,"lon":-178.131,"iso2":"WF","iso3":"WLF","region":9},{"un":882,"name":"Samoa","area":283,"lat":-13.652,"fips":"WS","pop2005":183845,"subregion":61,"lon":-172.414,"iso2":"WS","iso3":"WSM","region":9},{"un":748,"name":"Swaziland","area":1720,"lat":-26.562,"fips":"WZ","pop2005":1124529,"subregion":18,"lon":31.497,"iso2":"SZ","iso3":"SWZ","region":2},{"un":887,"name":"Yemen","area":52797,"lat":15.807,"fips":"YM","pop2005":21095679,"subregion":145,"lon":48.355,"iso2":"YE","iso3":"YEM","region":142},{"un":894,"name":"Zambia","area":74339,"lat":-14.614,"fips":"ZA","pop2005":11478317,"subregion":14,"lon":26.32,"iso2":"ZM","iso3":"ZMB","region":2},{"un":716,"name":"Zimbabwe","area":38685,"lat":-19.0,"fips":"ZI","pop2005":13119679,"subregion":14,"lon":29.872,"iso2":"ZW","iso3":"ZWE","region":2},{"un":360,"name":"Indonesia","area":181157,"lat":-0.976,"fips":"ID","pop2005":226063044,"subregion":35,"lon":114.252,"iso2":"ID","iso3":"IDN","region":142},{"un":312,"name":"Guadeloupe","area":169,"lat":16.286,"fips":"GP","pop2005":438403,"subregion":29,"lon":-61.441,"iso2":"GP","iso3":"GLP","region":19},{"un":530,"name":"Netherlands Antilles","area":80,"lat":12.123,"fips":"NT","pop2005":186392,"subregion":29,"lon":-68.87,"iso2":"AN","iso3":"ANT","region":19},{"un":784,"name":"United Arab Emirates","area":8360,"lat":23.549,"fips":"AE","pop2005":4104291,"subregion":145,"lon":54.163,"iso2":"AE","iso3":"ARE","region":142},{"un":626,"name":"Timor-Leste","area":1487,"lat":-8.822,"fips":"TT","pop2005":1067285,"subregion":35,"lon":125.878,"iso2":"TL","iso3":"TLS","region":142},{"un":612,"name":"Pitcairn Islands","area":0,"lat":-24.366,"fips":"PC","pop2005":5,"subregion":61,"lon":-128.316,"iso2":"PN","iso3":"PCN","region":9},{"un":585,"name":"Palau","area":0,"lat":7.501,"fips":"PS","pop2005":20127,"subregion":57,"lon":134.57,"iso2":"PW","iso3":"PLW","region":9},{"un":584,"name":"Marshall Islands","area":0,"lat":7.595,"fips":"RM","pop2005":5672,"subregion":57,"lon":168.963,"iso2":"MH","iso3":"MHL","region":9},{"un":666,"name":"Saint Pierre and Miquelon","area":0,"lat":47.042,"fips":"SB","pop2005":6346,"subregion":21,"lon":-56.325,"iso2":"PM","iso3":"SPM","region":19},{"un":654,"name":"Saint Helena","area":0,"lat":-15.953,"fips":"SH","pop2005":6399,"subregion":11,"lon":-5.71,"iso2":"SH","iso3":"SHN","region":2},{"un":674,"name":"San Marino","area":0,"lat":43.942,"fips":"SM","pop2005":30214,"subregion":39,"lon":12.46,"iso2":"SM","iso3":"SMR","region":150},{"un":796,"name":"Turks and Caicos Islands","area":0,"lat":21.902,"fips":"TK","pop2005":24459,"subregion":29,"lon":-71.95,"iso2":"TC","iso3":"TCA","region":19},{"un":732,"name":"Western Sahara","area":0,"lat":24.554,"fips":"WI","pop2005":440428,"subregion":15,"lon":-13.706,"iso2":"EH","iso3":"ESH","region":2},{"un":688,"name":"Serbia","area":0,"lat":44.032,"fips":"RB","pop2005":9863026,"subregion":39,"lon":20.806,"iso2":"RS","iso3":"SRB","region":150},{"un":336,"name":"Holy See (Vatican City)","area":0,"lat":41.904,"fips":"VT","pop2005":783,"subregion":39,"lon":12.451,"iso2":"VA","iso3":"VAT","region":150},{"un":744,"name":"Svalbard","area":0,"lat":78.83,"fips":"SV","pop2005":0,"subregion":154,"lon":18.374,"iso2":"SJ","iso3":"SJM","region":150},{"un":663,"name":"Saint Martin","area":0,"lat":18.094,"fips":"RN","pop2005":0,"subregion":29,"lon":-63.041,"iso2":"MF","iso3":"MAF","region":19},{"un":652,"name":"Saint Barthelemy","area":0,"lat":18.04,"fips":"TB","pop2005":0,"subregion":29,"lon":-63.043,"iso2":"BL","iso3":"BLM","region":19},{"un":831,"name":"Guernsey","area":0,"lat":49.459,"fips":"GK","pop2005":0,"subregion":154,"lon":-2.576,"iso2":"GG","iso3":"GGY","region":150},{"un":832,"name":"Jersey","area":0,"lat":49.219,"fips":"JE","pop2005":0,"subregion":154,"lon":-2.129,"iso2":"JE","iso3":"JEY","region":150},{"un":239,"name":"South Georgia South Sandwich Islands","area":0,"lat":-54.209,"fips":"SX","pop2005":0,"subregion":0,"lon":-36.891,"iso2":"GS","iso3":"SGS","region":0},{"un":158,"name":"Taiwan","area":0,"lat":23.754,"fips":"TW","pop2005":0,"subregion":0,"lon":120.946,"iso2":"TW","iso3":"TWN","region":0}]